$GPGGA,13506.000,1114.3351,N,07412.7416,W,1,12,0.77,17.8,M,-7.6,M,,*52
$GPGLL,1114.3351,N,07412.7416,W,193506.000,A,A*46
$GPGSA,A,3,30,07,01,14,17,03,28,19,02,06,22,09,1.51,0.77,1.30*0F
$GPGSV,3,1,12,14,59,013,36,30,53,212,29,2850,359,44,06,49,245,24*77
$GPGSV,3,2,12,17,34,342,29,03,32,073,24,19,27,313,27,07,25,170,37*7F
$GPGSV,3,3,12,02,15,233,16,22,13,051,30,01,13,032,18,09,07,151,35*7A
$GPRMC,193506.000,A,1114.3351,N,07412.7416,W,0.00,193.34,230421,,,A*7B
$GPVTG,193.34,T,,M,0.00,N,0.00,K,A*31
$GPGGA,193507.000,1114.3351,N,07412.7416,W,1,12,0.77,17.8,M,-7.6,M,,*53
$GPGLL,1114.3351,N,07412.7416,W,193507.000,A,A*47
$GPGSA,A,3,30,07,01,14,17,03,28,19,02,06,22,09,1.51,0.77,1.30*0F
$GPGSV,3,1,12,14,59,013,37,30,53,212,28,28,50,359,44,06,49,245,24*77
$GPGSV,3,2,12,17,34,342,27,03,32,073,31,19,27,313,27,07,25,170,37*75
$GPGSV,3,3,12,02,15,233,16,22,13,051,31,01,13,032,17,09,07,151,36*77
$GPRMC,193507.000,A,1114.3351,N,07412.7416,W,0.00,193.34,230421,,,A*7A
$GPVTG,193.34,T,,M,0.00,N,0.00,K,A*31
$GPGGA,193508.000,1114.3351,N,07412.7416,W,1,12,0.77,17.8,M,-7.6,M,,*5C
$GPGLL,1114.3351,N,07412.7416,W,193508.000,A,A*48
$GPGSA,A,3,30,07,01,14,17,03,28,19,02,06,22,09,1.51,0.77,1.30*0F
$GPGSV,3,1,12,14,59,013,37,30,53,212,27,28,50,359,44,06,49,245,23*7F
$GPGSV,3,2,12,17,34,342,28,03,32,073,23,19,27,313,27,07,25,170,38*76
$GPGSV,3,3,12,02,15,233,16,22,13,051,31,01,13,032,16,09,07,151,36*76
$GPRMC,193508.000,A,1114.3351,N,07412.7416,W,0.00,193.34,230421,,,A*75
$GPVTG,193.34,T,,M,0.00,N,0.00,K,A*31
$GPGGA,193509.000,1114.3351,N,07412.7416,W,1,12,0.77,17.8,M,-7.6,M,,*5D
$GPGLL,1114.3351,N,07412.7416,W,193509.000,A,A*49
$GPGSA,A,3,30,07,01,14,17,03,28,19,02,06,22,09,1.51,0.77,1.30*0F
$GPGSV,3,1,12,14,59,013,37,30,53,212,28,28,50,359,44,06,49,245,24*77
$GPGSV,3,2,12,17,34,342,29,03,32,073,25,19,27,313,27,07,25,170,38*71
$GPGSV,3,3,12,02,15,233,17,22,13,051,31,01,13,032,16,09,07,151,36*77
$GPRMC,193509.000,A,1114.3351,N,07412.7416,W,0.00,193.34,230421,,,A*74
$GPVTG,193.34,T,,M,0.00,N,0.00,K,A*31
$GPGGA,193510.000,1114.3351,N,07412.7416,W,1,12,0.77,17.8,M,-7.6,M,,*55
$GPGLL,1114.3351,N,07412.7416,W,193510.000,A,A*41
$GPGSA,A,3,30,07,01,14,17,03,28,19,02,06,22,09,1.51,0.77,1.30*0F
$GPGSV,3,1,12,14,59,013,37,30,53,212,27,28,50,359,44,06,49,246,23*7C
$GPGSV,3,2,12,17,34,342,29,03,32,073,38,19,27,313,27,07,25,170,38*7D
$GPGSV,3,3,12,2,15,233,29,22,13,051,24,01,13,032,15,09,07,151,36*7D
$GPRMC,193510.000,A,1114.3351,N,07412.7416,W,0.00,193.34,230421,,,A*7C
$GPVTG,193.34,T,,M,0.00,N,0.00,K,A*31
$GPGGA,193511.000,1114.3351,N,07412.7416,W,1,12,0.77,17.8,M,-7.6,M,,*54
$GPGLL,1114.3351,N,07412.7416,W,193511.000,A,A*40
$GPGSA,A,3,30,07,01,14,17,03,28,19,02,06,22,09,1.51,0.77,1.30*0F
$GPGSV,3,1,12,14,59,013,38,30,53,212,27,28,50,359,44,06,49,246,21*71
$GPGSV,3,2,12,17,34,342,31,03,32,073,38,19,27,313,26,07,25,170,38*75
$GPGSV,3,3,12,02,15,233,20,22,13,051,31,01,13,032,16,09,07,151,37*72
$GPRMC,193511.000,A,1114.3351,N,07412.7416,W,0.00,193.34,230421,,,A*7D
$GPVTG,193.34,T,,M,0.00,N,0.00,K,A*31
$GPGGA,193512.000,1114.3351,N,07412.7416,W,1,12,0.77,17.8,M,-7.6,M,,*57
$GPGLL,1114.3351,N,07412.7416,W,193512.000,A,A*43
$GPGSA,A,3,30,07,01,14,17,03,28,19,02,06,22,09,1.51,0.77,1.30*0F
$GPGSV,3,1,12,14,59,013,38,30,53,212,26,28,50,359,44,06,49,246,20*71
$GPGSV,3,2,12,17,34,342,30,03,32,073,37,19,27,313,18,07,25,170,39*77
$GPGSV,3,3,12,02,15,233,20,22,13,051,32,01,13,032,16,09,07,151,37*71
$GPRMC,193512.000,A,1114.3351,N,07412.7416,W,0.00,193.34,230421,,,A*7E
$GPVTG,193.34,T,,M,0.00,N,0.00,K,A*31
$GPGGA,193513.000,1114.3351,N,07412.7416,W,1,12,0.77,17.8,M,-7.6,M,,*56
$GPGLL,1114.3351,N,07412.7416,W,193513.000,A,A*42
$GPGSA,A,3,30,07,01,14,17,03,28,19,02,06,22,09,1.51,0.77,1.30*0F
$GPGSV,3,1,12,14,59,013,37,30,53,212,27,28,50,359,44,06,49,246,19*75
$GPGSV,3,2,12,17,34,342,29,03,32,073,37,19,27,313,20,07,25,170,38*75
$GPGSV,3,3,12,02,15,233,20,22,13,051,33,01,13,032,18,09,07,151,37*7E
$GPRMC,193513.000,A,1114.3351,N,07412.7416,W,0.00,193.34,230421,,,A*7F
$GPVTG,193.34,T,,M,0.00,N,0.00,K,A*31
$GPGGA,193514.000,1114.3346,N,07412.7416,W,1,12,0.74,17.8,M,-7.6,M,,*54
$GPGLL,1114.3346,N,07412.7416,W,193514.000,A,A*43
$GPGSA,A,3,30,07,01,14,17,03,28,19,02,06,22,09,1.09,0.74,0.79*0D
$GPGSV,3,1,12,14,59,013,37,30,53,212,28,28,50,359,43,06,49,246,18*7C
$GPGSV,3,2,12,17,34,342,27,03,32,073,38,19,27,313,22,07,25,170,37*79
$GPGSV,3,3,12,02,15,233,22,22,13,051,32,01,13,032,19,09,07,151,37*7C
$GPRMC,193514.000,A,1114.3346,N,07412.7416,W,3.13,190.87,230421,,,A*74
$GPVTG,190.87,T,,M,3.13,N,5.80,K,A*36
$GPGGA,193515.000,1114.3334,N,07412.7418,W,1,12,0.74,17.7,M,-7.6,M,,*51
$GPGLL,1114.3334,N,07412.7418,W,193515.000,A,A*49
$GPGSA,A,3,30,07,01,14,17,03,28,19,02,06,22,09,1.09,0.74,0.79*0D
$GPGSV,3,1,12,14,59,013,37,30,53,212,36,28,50,359,43,06,49,246,20*78
$GPGSV,3,2,12,17,34,342,28,03,32,073,38,19,27,313,22,07,25,170,36*77
$GPGSV,3,3,12,02,15,233,29,22,13,051,32,01,13,032,19,09,07,151,37*77
$GPRMC,193515.000,A,1114.3334,N,07412.7418,W,5.08,194.22,230421,,,A*79
$GPVTG,194.22,T,,M,5.08,N,9.42,K,A*33
$GPGGA,193516.000,1114.3317,N,07412.7422,W,1,12,0.77,17.4,M,-7.6,M,,*5A
$GPGLL,1114.3317,N,07412.7422,W,193516.000,A,A*42
$GPGSA,A,3,30,07,01,14,17,03,28,19,02,06,22,09,1.51,0.77,1.30*0F
$GPGSV,3,1,12,14,59,013,37,30,53,212,35,28,50,359,42,06,49,246,22*78
$GPGSV,3,2,12,17,34,342,27,03,32,073,36,19,27,313,21,07,25,170,36*75
$GPGSV,3,3,12,02,15,233,30,22,13,051,33,01,13,032,19,09,07,151,36*7F
$GPRMC,193516.000,A,1114.3317,N,07412.7422,W,5.29,189.00,230421,,,A*7D
$GPVTG,189.00,T,,M,5.29,N,9.80,K,A*32
$GPGGA,193517.000,1114.3297,N,07412.7423,W,1,12,0.77,17.3,M,-7.6,M,,*54
$GPGLL,1114.3297,N,07412.7423,W,193517.000,A,A*4B
$GPGSA,A,3,30,07,01,14,17,03,28,19,02,06,22,09,1.51,0.77,1.30*0F
$GPGSV,3,1,12,14,59,013,38,30,53,212,34,28,50,359,42,06,49,246,24*70
$GPGSV,3,2,12,17,34,342,26,03,32,073,37,19,27,313,20,07,25,170,35*77
$GPGSV,3,3,12,02,15,233,30,22,13,051,33,01,13,032,20,09,07,151,37*74
$GPRMC,193517.000,A,1114.3297,N,07412.7423,W,5.91,190.63,230421,,,A*7A
$GPVTG,190.63,T,,M,5.91,N,10.96,K,A*03
$GPGGA,193518.000,1114.3279,N,07412.7425,W,1,12,0.77,17.1,M,-7.6,M,,*5F
$GPGLL,1114.3279,N,07412.7425,W,193518.000,A,A*42
$GPGSA,A,3,30,07,01,14,17,03,28,19,02,06,22,09,1.51,0.77,1.30*0F
$GPGSV,3,1,12,14,59,014,38,30,53,212,35,28,50,359,35,06,49,246,34*77
$GPGSV,3,2,12,17,34,342,26,03,32,073,39,19,27,313,19,07,25,170,34*72
$GPGSV,3,3,12,02,15,233,30,22,13,051,40,01,13,032,20,09,07,151,36*71
$GPRMC,193518.000,A,1114.3279,N,07412.7425,W,6.31,188.60,230421,,,A*70
$GPVTG,188.60,T,,M,6.31,N,11.68,K,A*00
$GPGGA,193519.000,1114.3259,N,07412.7426,W,1,12,0.77,17.0,M,-7.6,M,,*5E
$GPGLL,1114.3259,N,07412.7426,W,193519.000,A,A*42
$GPGSA,A,3,30,07,01,14,17,03,28,19,02,06,22,09,1.51,0.77,1.30*0F
$GPGSV,3,1,12,14,59,014,38,30,53,212,34,28,50,359,34,06,49,246,36*75
$GPGSV,3,2,12,17,34,342,27,03,32,073,39,19,27,313,19,07,25,170,35*72
$GPGSV,3,3,12,02,15,233,30,22,13,051,30,01,13,032,21,09,07,151,35*74
$GPRMC,193519.000,A,1114.3259,N,07412.7426,W,6.53,189.91,230421,,,A*7B
$GPVTG,189.91,T,,M,6.53,N,12.10,K,A*07
$GPGGA,193520.000,1114.3239,N,07412.7434,W,1,12,0.77,16.9,M,-7.6,M,,*59
$GPGLL,1114.3239,N,07412.7434,W,193520.000,A,A*4D
$GPGSA,A,3,30,07,01,14,17,03,28,19,02,06,22,09,1.51,0.77,1.30*0F
$GPGSV,3,1,12,14,59,014,38,30,53,212,32,28,50,359,32,06,49,246,37*74
$GPGSV,3,2,12,17,34,342,28,03,32,073,41,19,27,313,18,07,25,170,34*72
$GPGSV,3,3,12,02,15,233,30,22,13,051,32,01,13,032,22,09,07,151,28*79
$GPRMC,193520.000,A,1114.3239,N,07412.7434,W,5.93,189.84,230421,,,A*7F
$GPVTG,189.84,T,,M,5.93,N,11.00,K,A*0E
$GPGGA,193521.000,1114.3222,N,07412.7441,W,1,12,0.77,16.6,M,-7.6,M,,*5F
$GPGLL,1114.3222,N,07412.7441,W,193521.000,A,A*44
$GPGSA,A,3,30,07,01,14,17,03,28,19,02,06,22,09,1.51,0.77,1.30*0F
$GPGSV,3,1,12,14,59,014,38,30,53,212,31,28,50,359,24,06,49,246,38*7F
$GPGSV,3,2,12,17,33,343,27,03,32,073,41,19,27,313,18,07,25,170,32*7D
$GPGSV,3,3,12,02,15,233,31,22,13,051,32,01,13,032,21,09,07,151,29*7A
$GPRMC,193521.000,A,1114.3222,N,07412.7441,W,4.84,190.62,230421,,,A*71
$GPVTG,190.62,T,,M,4.84,N,8.97,K,A*3F
$GPGGA,193522.000,1114.3208,N,07412.7448,W,1,12,0.77,16.2,M,-7.6,M,,*59
$GPGLL,1114.3208,N,07412.7448,W,193522.000,A,A*46
$GPGSA,A,3,30,07,01,14,17,03,28,19,02,06,22,09,1.51,0.77,1.30*0F
$GPGSV,3,1,12,14,59,014,38,30,53,212,38,28,50,359,24,06,49,246,40*79
$GPGSV,3,2,12,17,33,343,19,03,32,073,41,19,27,313,17,07,25,170,33*7E
$GPGSV,3,3,12,02,15,233,31,22,13,051,33,01,13,032,21,09,07,151,30*73
$GPRMC,193522.000,A,1114.3208,N,07412.7448,W,4.57,191.63,230421,,,A*7D
$GPVTG,191.63,T,,M,4.57,N,8.48,K,A*33
$GPGGA,193523.000,1114.3194,N,07412.7453,W,1,12,0.77,16.0,M,-7.6,M,,*56
$GPGLL,1114.3194,N,07412.7453,W,193523.000,A,A*4B
$GPGSA,A,3,30,07,01,14,17,03,28,19,02,06,22,09,1.51,0.77,1.30*0F
$GPGSV,3,1,12,14,59,014,37,30,53,212,36,28,50,359,26,06,49,246,41*7B
$GPGSV,3,2,12,17,33,343,26,03,32,073,41,19,27,313,16,07,25,170,32*72
$GPGSV,3,3,12,02,15,233,32,22,13,051,35,01,13,032,21,09,07,151,31*77
$GPRMC,193523.000,A,1114.3194,N,07412.7453,W,4.21,196.11,230421,,,A*73
$GPVTG,196.11,T,,M,4.21,N,7.81,K,A*3A
$GPGGA,193524.000,1114.3182,N,07412.7456,W,1,12,0.77,16.1,M,-7.6,M,,*52
$GPGLL,1114.3182,N,07412.7456,W,193524.000,A,A*4E
$GPGSA,A,3,30,07,01,14,17,03,28,19,02,06,22,09,1.51,0.77,1.30*0F
$GPGSV,3,1,12,14,59,014,38,30,53,212,36,28,50,359,27,06,49,246,42*76
$GPGSV,3,2,12,17,33,343,24,03,32,073,40,19,27,313,16,07,25,170,31*72
$GPGSV,3,3,12,02,15,233,32,22,13,051,42,01,13,032,20,09,07,151,30*77
$GPRMC,193524.000,A,1114.3182,N,07412.7456,W,4.62,190.25,230421,,,A*70
$GPVTG,190.25,T,,M,4.62,N,8.57,K,A*38
$GPGGA,193525.000,1114.3167,N,07412.7459,W,1,12,0.77,16.5,M,-7.6,M,,*53
$GPGLL,1114.3167,N,07412.7459,W,193525.000,A,A*4B
$GPGSA,A,3,30,07,01,14,17,03,28,19,02,06,22,09,1.51,0.77,1.30*0F
$GPGSV,3,1,12,14,59,014,38,30,53,212,34,28,50,359,28,06,49,246,42*7B
$GPGSV,3,2,12,17,33,343,23,03,32,073,40,19,27,313,15,07,25,170,38*7F
$GPGSV,3,3,12,02,15,233,31,22,13,051,40,01,13,032,21,09,07,151,29*7F
$GPRMC,193525.000,A,1114.3167,N,07412.7459,W,5.68,190.95,230421,,,A*75
$GPVTG,190.95,T,,M,5.68,N,10.52,K,A*04
$GPGGA,193526.000,1114.3149,N,07412.7465,W,1,12,0.77,16.0,M,-7.6,M,,*56
$GPGLL,1114.3149,N,07412.7465,W,193526.000,A,A*4B
$GPGSA,A,3,30,07,01,14,17,03,28,19,02,06,22,09,1.51,0.77,1.30*0F
$GPGSV,3,1,12,14,59,014,37,30,53,212,35,28,50,359,28,06,49,246,41*76
$GPGSV,3,2,12,17,33,343,22,03,32,073,41,19,27,313,15,07,25,170,38*7F
$GPGSV,3,3,12,02,15,233,32,22,13,051,40,01,13,032,21,09,07,15127*72
$GPRMC,193526.000,A,11143149,N,07412.7465,W,7.69,189.36,230421,,,A*77
$GPVTG,189.36,T,,M,7.69,N,14.25,K,A*02
$GPGGA,193527.000,1114.3128,N,07412.7470,W,1,12,0.77,15.8,M,-7.6,M,,*5F
$GPGLL,1114.3128,N,07412.7470,W,193527.000,A,A*49
$GPGSA,A,3,30,07,01,14,17,03,28,19,02,06,22,09,1.51,0.77,1.30*0F
$GPGSV,3,1,12,14,59,014,38,30,53,212,33,28,50,359,29,06,49,246,40*7F
$GPGSV,3,2,12,17,33,343,21,03,32,073,42,19,27,313,15,07,25,170,24*72
$GPGSV,3,3,12,02,15,233,33,22,13,051,40,01,13,032,21,09,07,151,24*70
$GPRMC,193527.000,A,1114.3128,N,07412.7470,W,7.93,189.62,230421,,,A*71
$GPVTG,189.62,T,,M,7.93,N,14.69,K,A*0E
$GPGGA,193528.000,1114.3107,N,07412.7474,W,1,12,0.77,15.7,M,-7.6,M,,*56
$GPGLL,1114.3107,N,07412.7474,W,193528.000,A,A*4F
$GPGSA,A,3,30,07,01,14,17,03,28,19,02,06,22,09,1.51,0.77,1.30*0F
$GPGSV,3,1,12,14,59,014,38,30,53,212,32,28,50,359,28,06,49,246,40*7F
$GPGSV,3,2,12,17,33,343,20,03,32,073,42,19,27,313,16,07,25,170,25*71
$GPGSV,3,3,12,02,15,233,32,22,13,051,39,01,13,032,21,09,07,151,28*73
$GPRMC,193528.000,A,1114.3107,N,07412.7474,W,8.51,190.01,230421,,,A*7B
$GPVTG,190.01,T,,M,8.51,N,15.77,K,A*0C
$GPGGA,193529.000,1114.3084,N,07412.7478,W,1,12,0.77,15.9,M,-7.6,M,,*5F
$GPGLL,1114.3084,N,07412.7478,W,193529.000,A,A*48
$GPGSA,A,3,30,07,01,14,17,03,28,19,02,06,22,09,1.51,0.77,1.30*0F
$GPGSV,3,1,12,14,59,014,38,30,53,212,31,28,50,359,27,06,49,246,41*72
$GPGSV,3,2,12,17,33,343,19,03,32,073,43,19,27,313,16,07,25,170,34*7A
$GPGSV,3,3,12,02,15,233,31,22,13,051,38,01,13,032,22,09,07,151,23*79
$GPRMC,193529.000,A,1114.3084,N,07412.7478,W,8.76,192.56,230421,,,A*79
$GPVTG,192.56,T,,M,8.76,N,16.24,K,A*0C
$GPGGA,193530.000,1114.3060,N,07412.7483,W,1,12,0.77,15.9,M,-7.6,M,,*59
$GPGLL,1114.3060,N,07412.7483,W,193530.000,A,A*4E
$GPGSA,A,3,30,07,01,14,17,03,28,19,02,06,22,09,1.51,0.77,1.30*0F
$GPGSV,3,1,12,14,59,014,39,30,53,212,31,28,50,359,27,06,49,246,40*72
$GPGSV,3,2,12,17,33,343,18,03,32,073,43,19,27,313,17,07,25,170,26*79
$GPGSV,3,3,12,02,15,233,33,22,13,051,36,01,13,032,22,09,07,151,24*72
$GPRMC,193530.000,A,1114.3060,N,07412.7483,W,8.70,192.65,230421,,,A*79
$GPVTG,192.65,T,,M,8.70,N,16.12,K,A*0F
$GPGGA,193531.000,1114.3035,N,07412.7491,W,1,12,0.77,15.7,M,-7.6,M,,*55
$GPGLL,1114.3035,N,07412.7491,W,193531.000,A,A*4C
$GPGSA,A,3,30,07,01,14,17,03,28,19,02,06,22,09,1.51,0.77,1.30*0F
$GPGSV,3,1,12,14,59,014,39,30,53,212,30,28,50,359,27,06,49,246,41*72
$GPGSV,3,2,12,17,33,343,17,03,32,073,43,19,27,313,19,07,25,170,27*79
$GPGSV,3,3,12,02,15,233,33,22,13,051,37,01,13,032,21,09,07,151,29*7D
$GPRMC,193531.000,A,1114.3035,N,07412.7491,W,10.13,194.21,230421,,,A*41
$GPVTG,194.21,T,,M,10.13,N,18.78,K,A*37
$GPGGA,193532.000,1114.3010,N,07412.7501,W,1,12,0.77,15.1,M,-7.6,M,,*5F
$GPGLL,1114.3010,N,07412.7501,W,193532.000,A,A*40
$GPGSA,A,3,30,07,01,14,17,03,28,19,02,06,22,09,1.51,0.77,1.30*0F
$GPGSV,3,1,12,14,59,014,39,30,53,212,30,28,50,000,29,06,49,246,41*73
$GPGSV,3,2,12,17,33,343,17,03,32,073,42,19,27,313,35,07,25,170,29*78
$GPGSV,3,3,12,02,15,233,31,22,13,051,38,01,13,032,22,09,07,151,24*7E
$GPRMC,193532.000,A,1114.3010,N,07412.7501,W,10.52,195.66,230421,,,A*4A
$GPVTG,195.66,T,,M,10.52,N,19.50,K,A*3B
$GPGGA,193533.000,1114.2983,N,07412.7511,W,1,12,0.77,14.7,M,-7.6,M,,*5A
$GPGLL,1114.2983,N,07412.7511,W,193533.000,A,A*42
$GPGSA,A,3,30,07,01,14,17,03,28,19,02,06,22,09,1.51,0.77,1.30*0F
$GPGSV,3,1,12,14,59,014,39,30,53,212,29,28,50,000,40,06,49,246,42*77
$GPGSV,3,2,12,17,33,343,17,03,32,073,41,19,27,313,35,07,25,170,37*74
$GPGSV,3,3,12,02,15,233,24,22,13,051,38,01,13,032,22,09,07,151,32*7D
$GPRMC,193533.000,A,1114.2983,N,07412.7511,W,11.25,191.36,230421,,,A*48
$GPVTG,191.36,T,,M,11.25,N,20.84,K,A*38
$GPGGA,193534.000,1114.2952,N,07412.7517,W,1,12,0.77,14.5,M,-7.6,M,,*55
$GPGLL,1114.2952,N,07412.7517,W,193534.000,A,A*4F
$GPGSA,A,3,30,07,01,14,17,03,28,19,02,06,22,09,1.51,0.77,1.30*0F
$GPGSV,3,1,12,14,59,014,39,30,52,212,29,28,50,000,41,06,49,246,42*77
$GPGSV,3,2,12,17,33,343,17,03,32,073,40,19,27,313,28,07,25,170,38*76
$GPGSV,3,3,12,02,15,233,26,22,13,051,38,01,13,032,22,09,07,151,34*79
$GPRMC,193534.000,A,1114.2952,N,07412.757,W,11.03,190.74,230421,,,A*46
$GPVTG,190.74,T,,M,11.03,N,20.44,K,A*37
$GPGGA,193535.000,1114.2923,N,07412.7523,W,1,12,0.77,14.4,M,-7.6,M,,*54
$GPGLL,1114.2923,N,07412.7523,W,193535.000,A,A*4F
$GPGSA,A,3,30,07,01,14,17,03,28,19,02,06,22,09,1.51,0.77,1.30*0F
$GPGSV,3,1,12,14,59,014,38,30,52,212,30,28,50,000,41,06,49,246,41*7D
$GPGSV,3,2,12,17,33,343,16,03,32,073,33,19,27,313,29,07,25,170,31*7B
$GPGSV,3,3,12,02,15,233,35,22,13,051,30,01,13,032,23,09,07,151,32*74
GPRMC,193535.000,A,1114.2923,N,07412.7523,W,10.87,189.61,230421,,,A*47
$GPVTG,189.61,T,,M,10.87,N,20.13,K,A*34
$GPGGA,193536.000,1114.2894,N,07412.7528,W,1,12,0.77,14.3,M,-7.6,M,,*56